{
"type": "FeatureCollection",
"name": "Asistencias",
"crs": { "type": "name", "properties": { "name": "urn:ogc:def:crs:OGC:1.3:CRS84" } },
"features": [
{ "type": "Feature", "properties": { "Name": "Santa Eulalia Asistencia", "Source": "Wikipedia article" }, "geometry": { "type": "Point", "coordinates": [ -122.124444444443995, 38.237777777777801, 0.0 ] } },
{ "type": "Feature", "properties": { "Name": "San Pedro y San Pablo Asistencia", "Source": "Wikipedia article" }, "geometry": { "type": "Point", "coordinates": [ -122.493333333332998, 37.587222222222202, 0.0 ] } },
{ "type": "Feature", "properties": { "Name": "Mission Dolores Asistencia", "Source": "Wikipedia article" }, "geometry": { "type": "Point", "coordinates": [ -122.327777777777996, 37.565277777777801, 0.0 ] } },
{ "type": "Feature", "properties": { "Name": "Santa Margarita de Cortona Asistencia", "Source": "Wikipedia article" }, "geometry": { "type": "Point", "coordinates": [ -120.612222222222002, 35.400555555555599, 0.0 ] } },
{ "type": "Feature", "properties": { "Name": "Santa Paula Asistencia", "Source": "Wikipedia article" }, "geometry": { "type": "Point", "coordinates": [ -119.050833333333003, 34.355833333333301, 0.0 ] } },
{ "type": "Feature", "properties": { "Name": "Nuestra Señora Reina de los Ángeles Asistencia", "Source": "Wikipedia article" }, "geometry": { "type": "Point", "coordinates": [ -118.2396, 34.0572, 0.0 ] } },
{ "type": "Feature", "properties": { "Name": "Santa Ysabel Asistencia", "Source": "Wikipedia article" }, "geometry": { "type": "Point", "coordinates": [ -116.678055555556, 33.130277777777799, 0.0 ] } },
{ "type": "Feature", "properties": { "Name": "San Antonio de Pala Asistencia", "Source": "Wikipedia article" }, "geometry": { "type": "Point", "coordinates": [ -117.079166666667007, 33.3611111111111, 0.0 ] } }
]
}
